% program   : rnx2rtkp ver.2.4.2
% inp file  : data/rover.obs
% inp file  : data/base.obs
% inp file  : data/navigation.nav
% obs start : 2005/04/02 00:00:00.0 GPST (week1316 518400.0s)
% obs end   : 2005/04/02 00:59:30.0 GPST (week1316 521970.0s)
% ref pos   : 35.160873135  139.613835918    69.8901
%
% (lat/lon/height=WGS84/ellipsoidal,Q=1:fix,2:float,3:sbas,4:dgps,5:single,6:ppp,ns=# of satellites)
%  GPST          latitude(deg) longitude(deg)  height(m)   Q  ns   sdn(m)   sde(m)   sdu(m)  sdne(m)  sdeu(m)  sdun(m) age(s)  ratio
1316 518400.000   35.132064255  139.624299498    75.4209   1   7   0.0058   0.0044   0.0136   0.0022  -0.0047  -0.0055   0.00   25.0
1316 518430.000   35.132064261  139.624299469    75.4274   1   7   0.0057   0.0045   0.0136   0.0023  -0.0047  -0.0054   0.00   40.5
1316 518460.000   35.132064275  139.624299473    75.4253   1   7   0.0058   0.0046   0.0136   0.0021  -0.0047  -0.0054   0.00   39.9
1316 518490.000   35.132064284  139.624299492    75.4152   1   7   0.0055   0.0043   0.0136   0.0020  -0.0047  -0.0054   0.00   51.8
1316 518520.000   35.132064239  139.624299441    75.4176   1   7   0.0058   0.0044   0.0135   0.0021  -0.0046  -0.0054   0.00   62.4
1316 518550.000   35.132064247  139.624299456    75.4209   1   7   0.0058   0.0046   0.0135   0.0021  -0.0045  -0.0054   0.00   65.4
1316 518580.000   35.132064271  139.624299476    75.4071   1   7   0.0056   0.0046   0.0135   0.0020  -0.0046  -0.0054   0.00   74.6
1316 518610.000   35.132064288  139.624299497    75.4025   1   7   0.0057   0.0043   0.0135   0.0020  -0.0045  -0.0052   0.00   68.6
1316 518640.000   35.132064252  139.624299506    75.4057   1   7   0.0059   0.0047   0.0134   0.0025  -0.0045  -0.0052   0.00   66.8
1316 518670.000   35.132064241  139.624299426    75.4208   1   7   0.0057   0.0043   0.0135   0.0022  -0.0044  -0.0052   0.00   63.6
1316 518700.000   35.132064209  139.624299473    75.4160   1   7   0.0058   0.0043   0.0134   0.0020  -0.0044  -0.0050   0.00   67.3
1316 518730.000   35.132064198  139.624299511    75.4084   1   7   0.0058   0.0043   0.0134   0.0023  -0.0044  -0.0050   0.00   83.2
1316 518760.000   35.132064190  139.624299497    75.4180   1   7   0.0057   0.0045   0.0134   0.0023  -0.0043  -0.0052  -0.00   81.1
1316 518790.000   35.132064210  139.624299495    75.4182   1   7   0.0060   0.0044   0.0133   0.0026  -0.0044  -0.0049  -0.00   84.7
1316 518820.000   35.132064245  139.624299527    75.4119   1   7   0.0057   0.0042   0.0133   0.0018  -0.0045  -0.0051  -0.00   86.4
1316 518850.000   35.132064243  139.624299529    75.4102   1   7   0.0060   0.0044   0.0133   0.0023  -0.0042  -0.0049  -0.00   87.5
1316 518880.000   35.132064234  139.624299500    75.4155   1   7   0.0059   0.0043   0.0133   0.0022  -0.0042  -0.0049  -0.00   93.6
1316 518910.000   35.132064256  139.624299534    75.4160   1   7   0.0056   0.0047   0.0133   0.0019  -0.0044  -0.0047  -0.00   99.4
1316 518940.000   35.132064277  139.624299494    75.4155   1   7   0.0056   0.0039   0.0132   0.0020  -0.0044  -0.0049  -0.00  105.5
1316 518970.000   35.132064236  139.624299423    75.4400   1   7   0.0058   0.0044   0.0132   0.0022  -0.0042  -0.0047  -0.00  108.3
1316 519000.000   35.132064243  139.624299463    75.4190   1   7   0.0058   0.0044   0.0132   0.0021  -0.0042  -0.0047  -0.00  110.7
1316 519030.000   35.132064250  139.624299496    75.4214   1   7   0.0058   0.0042   0.0131   0.0012  -0.0043  -0.0048  -0.00  122.8
1316 519060.000   35.132064236  139.624299470    75.4225   1   7   0.0058   0.0044   0.0131   0.0026  -0.0040  -0.0046  -0.00  128.2
1316 519090.000   35.132064207  139.624299443    75.4265   1   7   0.0059   0.0040   0.0131   0.0025  -0.0041  -0.0045  -0.00  132.2
1316 519120.000   35.132064231  139.624299464    75.4134   1   7   0.0059   0.0046   0.0131   0.0020  -0.0041  -0.0044  -0.00  143.6
1316 519150.000   35.132064211  139.624299441    75.4228   1   7   0.0057   0.0040   0.0131   0.0017  -0.0040  -0.0046  -0.00  158.1
1316 519180.000   35.132064207  139.624299465    75.4131   1   7   0.0058   0.0043   0.0130   0.0022  -0.0039  -0.0045  -0.00  162.9
1316 519210.000   35.132064209  139.624299504    75.4161   1   7   0.0059   0.0039   0.0130   0.0025  -0.0040  -0.0043  -0.00  173.3
1316 519240.000   35.132064229  139.624299508    75.4042   1   7   0.0060   0.0044   0.0131   0.0016  -0.0040  -0.0041  -0.00  184.9
1316 519270.000   35.132064208  139.624299473    75.4151   1   7   0.0060   0.0040   0.0130   0.0022  -0.0040  -0.0041  -0.00  185.6
1316 519300.000   35.132064249  139.624299457    75.4112   1   7   0.0058   0.0047   0.0129   0.0026  -0.0039  -0.0041  -0.00  175.3
1316 519330.000   35.132064242  139.624299477    75.4149   1   7   0.0056   0.0042   0.0129   0.0022  -0.0041  -0.0040  -0.00  165.4
1316 519360.000   35.132064239  139.624299452    75.4198   1   7   0.0059   0.0043   0.0129   0.0023  -0.0040  -0.0039  -0.00  156.6
1316 519390.000   35.132064246  139.624299463    75.4137   1   7   0.0058   0.0040   0.0129   0.0023  -0.0038  -0.0039  -0.00  147.2
1316 519420.000   35.132064239  139.624299467    75.4114   1   7   0.0059   0.0041   0.0128   0.0018  -0.0039  -0.0039  -0.00  147.1
1316 519450.000   35.132064273  139.624299464    75.4109   1   7   0.0060   0.0045   0.0128   0.0021  -0.0038  -0.0039  -0.00  142.9
1316 519480.000   35.132064240  139.624299443    75.4117   1   6   0.0059   0.0044   0.0142   0.0020  -0.0032  -0.0018  -0.00   77.7
1316 519510.000   35.132064246  139.624299446    75.4227   1   6   0.0062   0.0041   0.0141   0.0025  -0.0029  -0.0024  -0.00   77.6
1316 519540.000   35.132064264  139.624299434    75.4091   1   6   0.0059   0.0045   0.0142   0.0021  -0.0028  -0.0016  -0.00   77.5
1316 519570.000   35.132064279  139.624299452    75.4167   1   6   0.0064   0.0043   0.0142   0.0026  -0.0026  -0.0020  -0.00   77.8
1316 519600.000   35.132064273  139.624299466    75.4106   1   6   0.0061   0.0047   0.0141   0.0026  -0.0029  -0.0014  -0.00   76.6
1316 519630.000   35.132064261  139.624299471    75.4186   1   6   0.0061   0.0044   0.0142   0.0019  -0.0028  -0.0010  -0.00   76.4
1316 519660.000   35.132064230  139.624299442    75.4185   1   6   0.0060   0.0044   0.0141   0.0022  -0.0028  -0.0008  -0.00   76.5
1316 519690.000   35.132064222  139.624299486    75.4178   1   6   0.0063   0.0044   0.0142   0.0025  -0.0028   0.0005  -0.00   77.2
1316 519720.000   35.132064251  139.624299496    75.4060   1   6   0.0061   0.0048   0.0142   0.0023  -0.0022  -0.0003  -0.00   82.9
1316 519750.000   35.132064265  139.624299504    75.4165   1   6   0.0062   0.0047   0.0142   0.0025  -0.0024   0.0014  -0.00   85.1
1316 519780.000   35.132064253  139.624299483    75.4149   1   6   0.0063   0.0043   0.0142   0.0024  -0.0022   0.0010  -0.00   91.2
1316 519810.000   35.132064260  139.624299491    75.4110   1   6   0.0065   0.0047   0.0141   0.0025  -0.0024   0.0014  -0.00   93.7
1316 519840.000   35.132064224  139.624299431    75.4257   1   6   0.0067   0.0046   0.0141   0.0029  -0.0025   0.0019  -0.00   96.5
1316 519870.000   35.132064232  139.624299439    75.4142   1   6   0.0066   0.0039   0.0141   0.0027  -0.0025   0.0021  -0.00  100.9
1316 519900.000   35.132064256  139.624299472    75.4099   1   6   0.0066   0.0046   0.0141   0.0026  -0.0024   0.0021  -0.00  104.7
1316 519930.000   35.132064262  139.624299466    75.4096   1   6   0.0064   0.0038   0.0142   0.0021  -0.0021   0.0023  -0.00  107.2
1316 519960.000   35.132064254  139.624299440    75.4158   1   6   0.0065   0.0044   0.0142   0.0024  -0.0022   0.0026  -0.00  110.9
1316 519990.000   35.132064265  139.624299406    75.4140   1   6   0.0065   0.0042   0.0142   0.0024  -0.0020   0.0027  -0.00  118.1
1316 520020.000   35.132064256  139.624299441    75.4116   1   6   0.0064   0.0044   0.0142   0.0024  -0.0022   0.0030  -0.00  123.8
1316 520050.000   35.132064270  139.624299450    75.4041   1   6   0.0064   0.0040   0.0142   0.0021  -0.0025   0.0033  -0.00  128.3
1316 520080.000   35.132064254  139.624299467    75.4126   1   6   0.0065   0.0040   0.0142   0.0022  -0.0021   0.0031  -0.00  134.7
1316 520110.000   35.132064268  139.624299488    75.4131   1   6   0.0069   0.0037   0.0142   0.0027  -0.0022   0.0032  -0.00  140.8
1316 520140.000   35.132064260  139.624299474    75.4181   1   6   0.0066   0.0039   0.0142   0.0027  -0.0019   0.0035  -0.00  148.9
1316 520170.000   35.132064275  139.624299474    75.4120   1   6   0.0064   0.0046   0.0143   0.0021  -0.0012   0.0034  -0.00  151.0
1316 520200.000   35.132064239  139.624299440    75.4125   1   6   0.0068   0.0044   0.0142   0.0024  -0.0020   0.0037  -0.00  148.2
1316 520230.000   35.132064273  139.624299455    75.4207   1   6   0.0069   0.0044   0.0142   0.0023  -0.0022   0.0039  -0.00  146.5
1316 520260.000   35.132064282  139.624299434    75.4115   1   6   0.0066   0.0040   0.0143   0.0027  -0.0020   0.0039  -0.00  146.5
1316 520290.000   35.132064275  139.624299466    75.4203   1   6   0.0068   0.0042   0.0143   0.0022  -0.0016   0.0040  -0.00  147.6
1316 520320.000   35.132064217  139.624299410    75.4305   1   6   0.0070   0.0045   0.0144   0.0024  -0.0013   0.0040  -0.00  149.5
1316 520350.000   35.132064243  139.624299456    75.4166   1   6   0.0068   0.0042   0.0143   0.0028  -0.0017   0.0043  -0.00  150.6
1316 520380.000   35.132064670  139.624300001    75.4448   1   6   0.0445   0.0240   0.0704   0.0209   0.0197   0.0280  30.00  149.6
1316 520410.000   35.132064221  139.624299428    75.4104   1   6   0.0067   0.0041   0.0144   0.0026  -0.0017   0.0046  -0.00  158.9
1316 520440.000   35.132064200  139.624299625    75.3363   1   6   0.0448   0.0241   0.0704   0.0212   0.0204   0.0282  30.00  160.0
1316 520470.000   35.132064207  139.624299464    75.4161   1   6   0.0069   0.0041   0.0145   0.0030  -0.0011   0.0048  -0.00  173.7
1316 520500.000   35.132064235  139.624299662    75.3912   1   6   0.0451   0.0242   0.0704   0.0215   0.0210   0.0284  30.00  174.5
1316 520530.000   35.132064244  139.624299464    75.4278   1   6   0.0071   0.0041   0.0145   0.0029  -0.0010   0.0049  -0.00  181.8
1316 520560.000   35.132064391  139.624299900    75.3922   1   6   0.0454   0.0244   0.0703   0.0218   0.0216   0.0285  30.00  183.5
1316 520590.000   35.132064467  139.624299867    75.4075   1   6   0.0456   0.0245   0.0703   0.0219   0.0219   0.0286  29.99  184.2
1316 520620.000   35.132064285  139.624299686    75.3832   1   6   0.0457   0.0245   0.0703   0.0220   0.0222   0.0286  29.99  182.8
1316 520650.000   35.132064395  139.624299763    75.4234   1   6   0.0459   0.0246   0.0702   0.0221   0.0225   0.0287  29.99  182.0
1316 520680.000   35.132064144  139.624299874    75.3585   1   6   0.0460   0.0247   0.0702   0.0222   0.0228   0.0287  29.99  183.9
1316 520710.000   35.132064206  139.624299846    75.3464   1   6   0.0461   0.0247   0.0701   0.0224   0.0230   0.0287  29.99  185.4
1316 520740.000   35.132064106  139.624299748    75.3221   1   6   0.0463   0.0248   0.0701   0.0225   0.0233   0.0287  29.99  186.1
1316 520770.000   35.132064152  139.624299751    75.3830   1   6   0.0464   0.0249   0.0701   0.0226   0.0235   0.0287  29.99  184.8
1316 520800.000   35.132064448  139.624299913    75.3961   1   6   0.0465   0.0250   0.0700   0.0227   0.0238   0.0287  29.99  184.2
1316 520830.000   35.132064269  139.624299651    75.3918   1   6   0.0466   0.0250   0.0700   0.0228   0.0240   0.0287  29.99  183.0
1316 520860.000   35.132064090  139.624299502    75.3934   1   6   0.0467   0.0251   0.0699   0.0229   0.0242   0.0287  29.99  183.1
1316 520890.000   35.132063840  139.624299498    75.3751   1   6   0.0468   0.0252   0.0699   0.0230   0.0245   0.0286  29.99  183.4
1316 520920.000   35.132064088  139.624299662    75.3520   1   6   0.0469   0.0253   0.0698   0.0230   0.0247   0.0286  29.99  183.2
1316 520950.000   35.132064710  139.624299953    75.4430   1   6   0.0470   0.0253   0.0698   0.0231   0.0249   0.0285  29.99  181.5
1316 520980.000   35.132064496  139.624299685    75.3690   1   6   0.0471   0.0254   0.0697   0.0232   0.0251   0.0285  29.99  179.1
1316 521010.000   35.132064456  139.624299718    75.4009   1   6   0.0472   0.0255   0.0697   0.0233   0.0253   0.0284  29.99  179.3
1316 521040.000   35.132064447  139.624299903    75.4336   1   6   0.0473   0.0256   0.0696   0.0233   0.0255   0.0283  29.99  181.3
1316 521070.000   35.132064349  139.624299853    75.3969   1   6   0.0474   0.0256   0.0696   0.0234   0.0257   0.0282  29.99  182.8
1316 521100.000   35.132064437  139.624299664    75.3718   1   6   0.0474   0.0257   0.0695   0.0235   0.0259   0.0281  29.99  180.8
1316 521130.000   35.132064428  139.624299719    75.3642   1   6   0.0475   0.0258   0.0694   0.0235   0.0260   0.0279  29.99  182.1
1316 521160.000   35.132064357  139.624299595    75.3767   1   6   0.0475   0.0258   0.0694   0.0236   0.0262   0.0278  29.99  181.6
1316 521190.000   35.132063946  139.624299647    75.3491   1   6   0.0476   0.0259   0.0693   0.0236   0.0264   0.0276  29.99  179.1
1316 521220.000   35.132063763  139.624299231    75.3265   1   6   0.0476   0.0260   0.0692   0.0236   0.0265   0.0275  29.99  175.3
1316 521250.000   35.132063786  139.624299484    75.3210   1   6   0.0477   0.0260   0.0692   0.0237   0.0267   0.0273  29.99  179.8
1316 521280.000   35.132064009  139.624299811    75.3468   1   6   0.0477   0.0261   0.0691   0.0237   0.0268   0.0271  29.99  179.7
1316 521310.000   35.132064064  139.624299834    75.3844   1   6   0.0478   0.0262   0.0690   0.0237   0.0270   0.0269  29.99  178.9
1316 521340.000   35.132063746  139.624299290    75.3449   1   6   0.0478   0.0262   0.0690   0.0237   0.0271   0.0267  29.99  177.5
1316 521370.000   35.132063304  139.624299296    75.3432   1   6   0.0478   0.0263   0.0689   0.0237   0.0273   0.0265  29.99  175.6
1316 521400.000   35.132064434  139.624300022    75.3919   1   6   0.0478   0.0264   0.0688   0.0237   0.0274   0.0262  29.99  172.1
1316 521430.000   35.132064124  139.624299846    75.3928   1   6   0.0478   0.0264   0.0687   0.0237   0.0275   0.0260  29.99  170.0
1316 521460.000   35.132064561  139.624300250    75.3918   1   6   0.0478   0.0265   0.0687   0.0237   0.0276   0.0257  29.99  170.0
1316 521490.000   35.132064032  139.624299785    75.3767   1   6   0.0478   0.0266   0.0686   0.0237   0.0278   0.0254  29.99  167.8
1316 521520.000   35.132063948  139.624299412    75.3176   1   6   0.0478   0.0266   0.0685   0.0237   0.0279   0.0252  29.99  162.8
1316 521550.000   35.132064271  139.624299602    75.3544   1   6   0.0478   0.0267   0.0685   0.0237   0.0280   0.0248  29.99  156.1
1316 521580.000   35.132064076  139.624299722    75.3752   1   6   0.0478   0.0267   0.0684   0.0236   0.0281   0.0245  29.99  154.9
1316 521610.000   35.132064128  139.624299717    75.3733   1   6   0.0478   0.0268   0.0683   0.0236   0.0282   0.0242  29.99  151.9
1316 521640.000   35.132064603  139.624300172    75.3745   1   6   0.0478   0.0268   0.0682   0.0235   0.0283   0.0238  29.99  149.2
1316 521670.000   35.132064491  139.624300000    75.3909   1   6   0.0477   0.0269   0.0682   0.0235   0.0284   0.0235  29.99  145.8
1316 521700.000   35.132063885  139.624299708    75.3592   1   6   0.0477   0.0269   0.0681   0.0234   0.0285   0.0231  29.99  142.3
1316 521730.000   35.132063658  139.624299346    75.3175   1   6   0.0477   0.0270   0.0680   0.0234   0.0286   0.0227  29.99  141.7
1316 521760.000   35.132064150  139.624299607    75.2922   1   6   0.0476   0.0270   0.0680   0.0233   0.0287   0.0223  29.99  137.7
1316 521790.000   35.132064129  139.624299713    75.3275   1   6   0.0476   0.0271   0.0679   0.0232   0.0288   0.0219  29.99  132.2
1316 521820.000   35.132064961  139.624299384    75.6562   1   5   0.2689   0.0581   0.6762  -0.1143  -0.1836   0.4225  29.99  104.4
